<CameraList xmlns:i="http://www.w3.org/2001/XMLSchema-instance"><Camera><Active>true</Active><FullImageURL>http://cctv.cdn.goakamai.org//SnapShot/320x240/TL-0044.jpg</FullImageURL><HalfImageURL>http://cctv.cdn.goakamai.org//SnapShot/320x240/TL-0044.jpg</HalfImageURL><ID>TL-0044</ID><LastUpdate>2019-01-17T08:00:01</LastUpdate><Location><Lat>21.38864</Lat><Lon>-157.94098</Lon></Location><Name>H-1 and Kaonohi (Westbound)</Name><Status>OK</Status><StreamingURL/><TourMembership/></Camera><Camera><Active>true</Active><FullImageURL>http://cctv.cdn.goakamai.org//SnapShot/320x240/TL-0038.jpg</FullImageURL><HalfImageURL>http://cctv.cdn.goakamai.org//SnapShot/320x240/TL-0038.jpg</HalfImageURL><ID>TL-0038</ID><LastUpdate>2019-01-17T08:00:01</LastUpdate><Location><Lat>21.37991</Lat><Lon>-157.92909</Lon></Location><Name>H-1 and Aiea Heights Overpass</Name><Status>OK</Status><StreamingURL/><TourMembership/></Camera><Camera><Active>true</Active><FullImageURL>http://cctv.cdn.goakamai.org//SnapShot/320x240/TL-0094.jpg</FullImageURL><HalfImageURL>http://cctv.cdn.goakamai.org//SnapShot/320x240/TL-0094.jpg</HalfImageURL><ID>TL-0094</ID><LastUpdate>2019-01-17T08:00:01</LastUpdate><Location><Lat>21.38709</Lat><Lon>-157.95442</Lon></Location><Name>Kam Hwy and Kaahumanu</Name><Status>OK</Status><StreamingURL/><TourMembership/></Camera><Camera><Active>true</Active><FullImageURL>http://cctv.cdn.goakamai.org//SnapShot/320x240/TL-0095.jpg</FullImageURL><HalfImageURL>http://cctv.cdn.goakamai.org//SnapShot/320x240/TL-0095.jpg</HalfImageURL><ID>TL-0095</ID><LastUpdate>2019-01-17T08:00:01</LastUpdate><Location><Lat>21.3833</Lat><Lon>-157.94614</Lon></Location><Name>Kam Hwy and Kaonohi</Name><Status>OK</Status><StreamingURL/><TourMembership/></Camera><Camera><Active>true</Active><FullImageURL>http://cctv.cdn.goakamai.org//SnapShot/320x240/TL-0125.jpg</FullImageURL><HalfImageURL>http://cctv.cdn.goakamai.org//SnapShot/320x240/TL-0125.jpg</HalfImageURL><ID>TL-0125</ID><LastUpdate>2019-01-17T08:00:01</LastUpdate><Location><Lat>21.39077</Lat><Lon>-157.95328</Lon></Location><Name>Moanalua Rd and Kaahumanu St</Name><Status>OK</Status><StreamingURL/><TourMembership/></Camera><Camera><Active>true</Active><FullImageURL>http://cctv.cdn.goakamai.org//SnapShot/320x240/TL-0126.jpg</FullImageURL><HalfImageURL>http://cctv.cdn.goakamai.org//SnapShot/320x240/TL-0126.jpg</HalfImageURL><ID>TL-0126</ID><LastUpdate>2019-01-17T08:00:01</LastUpdate><Location><Lat>21.38643</Lat><Lon>-157.94199</Lon></Location><Name>Moanalua Rd and Kaonohi St</Name><Status>OK</Status><StreamingURL/><TourMembership/></Camera><Camera><Active>true</Active><FullImageURL>http://cctv.cdn.goakamai.org//SnapShot/320x240/TL-0124.jpg</FullImageURL><HalfImageURL>http://cctv.cdn.goakamai.org//SnapShot/320x240/TL-0124.jpg</HalfImageURL><ID>TL-0124</ID><LastUpdate>2019-01-17T08:00:01</LastUpdate><Location><Lat>21.381219</Lat><Lon>-157.935928</Lon></Location><Name>Moanalua Rd and Honomanu</Name><Status>OK</Status><StreamingURL/><TourMembership/></Camera><Camera><Active>true</Active><FullImageURL>http://cctv.cdn.goakamai.org//SnapShot/320x240/TL-0041.jpg</FullImageURL><HalfImageURL>http://cctv.cdn.goakamai.org//SnapShot/320x240/TL-0041.jpg</HalfImageURL><ID>TL-0041</ID><LastUpdate>2019-01-17T08:00:01</LastUpdate><Location><Lat>21.39302</Lat><Lon>-157.95301</Lon></Location><Name>H-1 and Kaahumanu (Eastbound)</Name><Status>OK</Status><StreamingURL/><TourMembership/></Camera><Camera><Active>true</Active><FullImageURL>http://cctv.cdn.goakamai.org//SnapShot/320x240/TL-0123.jpg</FullImageURL><HalfImageURL>http://cctv.cdn.goakamai.org//SnapShot/320x240/TL-0123.jpg</HalfImageURL><ID>TL-0123</ID><LastUpdate>2019-01-17T08:00:01</LastUpdate><Location><Lat>21.37911</Lat><Lon>-157.93088</Lon></Location><Name>Moanalua Rd and Aiea Hts Dr</Name><Status>OK</Status><StreamingURL/><TourMembership/></Camera><Camera><Active>true</Active><FullImageURL>http://cctv.cdn.goakamai.org//SnapShot/320x240/TL-0203.jpg</FullImageURL><HalfImageURL>http://cctv.cdn.goakamai.org//SnapShot/320x240/TL-0203.jpg</HalfImageURL><ID>TL-0203</ID><LastUpdate>2019-01-17T08:00:01</LastUpdate><Location><Lat>21.38683</Lat><Lon>-157.954498</Lon></Location><Name>Kam Hwy and Kaahumanu #2</Name><Status>OK</Status><StreamingURL/><TourMembership/></Camera><Camera><Active>true</Active><FullImageURL>http://cctv.cdn.goakamai.org//SnapShot/320x240/TL-0205.jpg</FullImageURL><HalfImageURL>http://cctv.cdn.goakamai.org//SnapShot/320x240/TL-0205.jpg</HalfImageURL><ID>TL-0205</ID><LastUpdate>2019-01-17T08:00:01</LastUpdate><Location><Lat>21.380935</Lat><Lon>-157.940851</Lon></Location><Name>Kam Hwy and Pali Momi</Name><Status>OK</Status><StreamingURL/><TourMembership/></Camera><Camera><Active>true</Active><FullImageURL>http://cctv.cdn.goakamai.org//SnapShot/320x240/TL-0042.jpg</FullImageURL><HalfImageURL>http://cctv.cdn.goakamai.org//SnapShot/320x240/TL-0042.jpg</HalfImageURL><ID>TL-0042</ID><LastUpdate>2019-01-17T08:00:01</LastUpdate><Location><Lat>21.39302</Lat><Lon>-157.95301</Lon></Location><Name>H-1 and Kaahumanu (Westbound)</Name><Status>OK</Status><StreamingURL/><TourMembership/></Camera><Camera><Active>true</Active><FullImageURL>http://cctv.cdn.goakamai.org//SnapShot/320x240/TL-0043.jpg</FullImageURL><HalfImageURL>http://cctv.cdn.goakamai.org//SnapShot/320x240/TL-0043.jpg</HalfImageURL><ID>TL-0043</ID><LastUpdate>2019-01-17T08:00:01</LastUpdate><Location><Lat>21.38864</Lat><Lon>-157.94098</Lon></Location><Name>H-1 and Kaonohi (Eastbound)</Name><Status>OK</Status><StreamingURL/><TourMembership/></Camera></CameraList>